[
  {
    "name": "Animal Orchestra",
    "address": "163 Grattan St, Carlton, VIC 3053",
    "phoneNumber": "(03) 9349 4944",
    "description": "Cafe. Breakfast and lunch",
    "url": "http://www.yelp.com.au/biz/animal-orchestra-carlton",
    "type": "Restaurant",
    "location": {
      "lng": 144.96342,
      "lat": -37.800603
    }
  },
  {
    "name": "StoveTop",
    "address": "100 LEICESTER STREET, Carlton, VIC 3053",
    "phoneNumber": "+61 3 9807 5158",
    "description": "Cafe. Breakfast and lunch and occasionally evening cocktails",
    "url": "http://www.yelp.com.au/biz/stovetop-carlton",
    "type": "Restaurant",
    "location": {
      "lng": 144.960859,
      "lat": -37.803708
    }
  },
  {
    "name": "Seven Seeds",
    "address": "106-114 Berkeley St Carlton Victoria 3053",
    "phoneNumber": "(03) 9347 8664",
    "description": "Cafe. Breakfast and lunch",
    "url": "http://www.yelp.com.au/biz/seven-seeds-carlton",
    "type": "Restaurant",
    "location": {
      "lng": 144.959121,
      "lat": -37.802872
    }
  },
  {
    "name": "Middle Fish",
    "address": "122-128 Berkeley St Carlton Victoria 3053",
    "phoneNumber": "(03) 9348 1704",
    "description": "Thai. Breakfast and lunch",
    "url": "http://www.yelp.com.au/biz/middle-fish-carlton",
    "type": "Restaurant",
    "location": {
      "lng": 144.958993,
      "lat": -37.802565
    }
  },
  {
    "name": "Kaprica",
    "address": "19 Lincoln Square S Carlton Victoria 3053",
    "phoneNumber": "(03) 9347 1138",
    "description": "Pizza. Lunch and dinner",
    "url": "http://www.yelp.com.au/biz/kaprica-carlton",
    "type": "Restaurant",
    "location": {
      "lng": 144.962784,
      "lat": -37.803363
    }
  },
  {
    "name": "Norsiah’s Kitchen",
    "address": "Shop 101 D 604 Swanston St Carlton Victoria 3053",
    "phoneNumber": "(03) 9347 7079",
    "description": "Indon. Lunch and dinner",
    "url": "http://www.yelp.com.au/biz/norsiahs-kitchen-carlton",
    "type": "Restaurant",
    "location": {
      "lng": 144.9638415,
      "lat": -37.8018231
    }
  },
  {
    "name": "Papa Gino’s",
    "address": "221 Lygon St Carlton Victoria 3053",
    "phoneNumber": "(03) 9347 5758",
    "description": "Pizza. Lunch and dinner",
    "url": "http://www.yelp.com.au/biz/papa-ginos-carlton",
    "type": "Restaurant",
    "location": {
      "lng": 144.96672,
      "lat": -37.800171
    }
  },
  {
    "name": "Don Tojo",
    "address": "164 Cardigan St Carlton Victoria 3053",
    "phoneNumber": "-",
    "description": "Japanese. Lunch and dinner",
    "url": "http://www.yelp.com.au/biz/don-tojo-carlton",
    "type": "Restaurant",
    "location": {
      "lng": 144.965601,
      "lat": -37.801459
    }
  },
  {
    "name": "Hotel Lincoln",
    "address": "91 Cardigan St Carlton Victoria 3053",
    "phoneNumber": "(03) 9347 4666",
    "description": "Pub. Lunch and dinner",
    "url": "http://www.yelp.com.au/biz/hotel-lincoln-carlton",
    "type": "Restaurant",
    "location": {
      "lng": 144.96443,
      "lat": -37.804423
    }
  },
  {
    "name": "Assembly",
    "address": "60 - 62 Pelham St Carlton Victoria 3053",
    "phoneNumber": "-",
    "description": "Coffee and Tea. NO FOOD",
    "url": "http://www.yelp.com.au/biz/assembly-carlton",
    "type": "Restaurant",
    "location": {
      "lng": 144.967293,
      "lat": -37.802624
    }
  },
  {
    "name": "Queensberry Pour House",
    "address": "210 Queensberry St Carlton Victoria 3053",
    "phoneNumber": "-",
    "description": "Cafe. Breakfast and lunch. BOTTOMLESS FILTER COFFEE",
    "url": "http://www.yelp.com.au/biz/queensberry-pour-house-carlton",
    "type": "Restaurant",
    "location": {
      "lng": 144.962028,
      "lat": -37.80421200000001
    }
  },
  {
    "name": "THE WORST COFFEE, EVER",
    "address": "183 Pelham Street Carlton Victoria 3053",
    "phoneNumber": "-",
    "description": "Only come here if you have lost your sense of taste",
    "url": "-",
    "type": "Restaurant",
    "location": {
      "lng": 144.9602432,
      "lat": -37.8021983
    }
  }
]
